City_ID,City,Lat,Lng,Max Temp,Humidity,Cloudiness,Wind Speed,Country,Date
0,hilo,19.7297,-155.09,23.85,87,100,3.6,US,1673929984
1,albany,42.6001,-73.9662,-1.31,70,8,2.3,US,1673929168
2,isangel,-19.55,169.2667,26.91,64,97,5.1,VU,1673929985
3,rikitea,-23.1203,-134.9692,25.32,70,4,3.36,PF,1673929986
4,san jose,37.3394,-121.895,10.72,82,75,2.57,US,1673929384
5,kaitangata,-46.2817,169.8464,17.83,66,70,5.4,NZ,1673929988
6,mar del plata,-38.0023,-57.5575,21.02,97,100,6.26,AR,1673929733
7,hobart,-42.8794,147.3294,29.47,52,75,7.2,AU,1673929697
8,san cristobal,7.7669,-72.225,19.1,95,53,1.03,VE,1673929742
9,kapaa,22.0752,-159.319,26.18,81,20,1.54,US,1673929992
10,nantucket,41.2835,-70.0995,2.03,82,100,6.69,US,1673929993
11,burnie,-41.0667,145.9167,22.75,73,91,3.38,AU,1673929943
12,avarua,-21.2078,-159.775,27.03,65,12,2.06,CK,1673929995
13,bandar,2.05,99.75,29.82,57,100,2.3,ID,1673929996
14,port alfred,-33.5906,26.891,23.43,99,100,4.53,ZA,1673929997
15,kavieng,-2.5744,150.7967,28.48,69,100,4.34,PG,1673929998
16,jinxiang,27.4327,120.6062,8.71,58,85,3.21,CN,1673929999
17,zhanaozen,43.3,52.8,-4.45,41,2,5.82,KZ,1673930000
18,arraial do cabo,-22.9661,-42.0278,23.04,93,1,9.04,BR,1673930000
19,asau,46.4333,26.4,0.71,76,63,2.57,RO,1673930001
20,butaritari,3.0707,172.7902,27.18,79,21,6.44,KI,1673930002
21,tuktoyaktuk,69.4541,-133.0374,-20.0,84,100,3.6,CA,1673930003
22,tiksi,71.6872,128.8694,-30.63,100,100,2.96,RU,1673930004
23,saint george,37.1041,-113.5841,8.33,59,0,2.06,US,1673929861
24,castro,-24.7911,-50.0119,18.44,97,100,1.18,BR,1673930007
25,carnarvon,-24.8667,113.6333,27.94,44,0,8.45,AU,1673929757
26,montepuez,-13.1256,38.9997,22.09,94,99,0.95,MZ,1673930009
27,chuka,-0.3332,37.6459,17.53,62,62,1.3,KE,1673930010
28,vaini,-21.2,-175.2,29.09,79,75,3.09,TO,1673930011
29,puerto ayora,-0.7393,-90.3518,24.19,95,35,2.77,EC,1673930012
30,aklavik,68.2191,-135.0107,-30.55,100,87,0.81,CA,1673930013
31,talcahuano,-36.7167,-73.1167,12.82,71,0,4.63,CL,1673930015
32,bluff,-46.6,168.3333,14.67,79,78,6.29,NZ,1673930016
33,ola,59.5833,151.2833,-20.15,84,100,5.43,RU,1673929994
34,jamestown,42.097,-79.2353,4.84,60,100,2.57,US,1673930018
35,chokurdakh,70.6333,147.9167,-29.95,92,96,5.34,RU,1673930021
36,naze,28.3667,129.4833,14.51,64,77,4.59,JP,1673930022
37,shimoda,34.6667,138.95,8.2,65,95,4.89,JP,1673930023
38,busselton,-33.65,115.3333,23.49,30,0,1.54,AU,1673930024
39,timmins,48.4669,-81.3331,-5.1,46,20,2.57,CA,1673930027
40,san vicente,-26.6167,-54.1333,19.69,85,21,0.92,AR,1673930030
41,kailua,21.4022,-157.7394,26.99,85,87,0.45,US,1673930031
42,east london,-33.0153,27.9116,23.52,100,40,1.54,ZA,1673929850
43,catia la mar,10.6038,-67.0303,26.11,83,40,0.51,VE,1673930034
44,xuanhua,40.6103,115.0447,-5.79,44,28,5.99,CN,1673930037
45,grindavik,63.8424,-22.4338,-1.03,80,20,7.72,IS,1673930038
46,tecoanapa,16.5167,-98.75,24.11,82,4,2.02,MX,1673930040
47,dikson,73.5069,80.5464,-36.94,85,4,2.96,RU,1673929990
48,cape town,-33.9258,18.4232,21.88,79,0,3.09,ZA,1673930047
49,ayan,56.45,138.1667,-32.39,62,54,3.62,RU,1673930049
50,pangai,-19.8,-174.35,30.06,70,20,1.03,TO,1673930051
51,bethel,41.3712,-73.414,1.78,61,0,2.06,US,1673930052
52,ushuaia,-54.8,-68.3,7.81,61,75,7.72,AR,1673930055
53,sinnamary,5.3833,-52.95,23.55,90,92,3.64,GF,1673930056
54,alta floresta,-9.8756,-56.0861,20.91,96,100,0.3,BR,1673930057
55,pizarro,4.9533,-77.366,23.78,91,74,2.34,CO,1673930059
56,severo-kurilsk,50.6789,156.125,-5.93,87,81,8.78,RU,1673930061
57,mata de sao joao,-12.5303,-38.2992,24.86,93,100,0.57,BR,1673930062
58,mitsamiouli,-11.3847,43.2844,27.65,69,29,1.8,KM,1673930064
59,georgetown,5.4112,100.3354,31.96,51,20,5.66,MY,1673930053
60,punta arenas,-53.15,-70.9167,7.06,61,0,5.14,CL,1673930067
61,upernavik,72.7868,-56.1549,-19.84,96,100,2.56,GL,1673930070
62,mountain home,43.133,-115.6912,1.71,100,100,5.14,US,1673930072
63,yellowknife,62.456,-114.3525,-13.71,85,100,5.14,CA,1673930073
64,nanortalik,60.1432,-45.2371,-11.81,66,31,5.59,GL,1673930076
65,mama,58.3106,112.8986,-28.07,92,49,1.79,RU,1673930078
66,ondangwa,-17.9167,15.95,22.14,76,100,2.86,NA,1673930079
67,komatipoort,-25.4332,31.9548,23.75,78,89,1.4,ZA,1673930080
68,linhares,-19.3911,-40.0722,21.25,97,19,1.17,BR,1673930083
69,mataura,-46.1927,168.8643,17.6,65,84,3.11,NZ,1673930083
70,lingao,19.9103,109.6859,15.84,81,100,5.99,CN,1673930084
71,bayan,46.0833,127.4,-12.7,74,80,4.95,CN,1673930085
72,pinawa,50.1489,-95.8811,-4.96,95,100,3.64,CA,1673929813
73,port elizabeth,-33.918,25.5701,22.4,97,100,4.12,ZA,1673930087
74,ostrovnoy,68.0531,39.5131,-0.71,85,59,12.28,RU,1673930088
75,saskylakh,71.9167,114.0833,-31.59,99,59,3.29,RU,1673930089
76,holovyne,50.4712,28.8253,3.87,90,100,7.44,UA,1673930090
77,itupiranga,-5.1347,-49.3267,24.18,98,51,1.31,BR,1673930091
78,new norfolk,-42.7826,147.0587,29.28,14,64,1.7,AU,1673930092
79,wamba,8.9333,8.6,20.6,25,97,1.65,NG,1673930093
80,atuona,-9.8,-139.0333,25.93,74,8,7.27,PF,1673930094
81,kodiak,57.79,-152.4072,1.73,93,100,2.57,US,1673930095
82,nikolskoye,59.7035,30.7861,1.94,90,100,2.91,RU,1673930096
83,leningradskiy,69.3833,178.4167,-35.39,96,10,2.19,RU,1673930097
84,hervey bay,-25.2986,152.8535,21.12,94,100,4.02,AU,1673930086
85,sao filipe,14.8961,-24.4956,24.85,62,100,3.41,CV,1673930098
86,kushmurun,52.4503,64.6311,-22.2,82,14,2.76,KZ,1673930099
87,bendigo,-36.7667,144.2833,37.7,49,21,0.89,AU,1673930100
88,nenjiang,49.1833,125.2167,-22.12,89,38,2.06,CN,1673930101
89,nishihara,26.1842,127.7558,18.81,63,40,6.17,JP,1673930102
90,ribeira grande,38.5167,-28.7,14.61,73,96,5.26,PT,1673930103
91,san patricio,28.017,-97.5169,20.92,83,0,2.12,US,1673930104
92,santa catalina,9.3337,122.8637,30.99,76,100,0.37,PH,1673930106
93,faya,18.3851,42.4509,10.29,65,75,1.68,SA,1673930106
94,camacha,33.0833,-16.3333,14.68,67,75,5.66,PT,1673930108
95,krasne,49.9145,24.6134,2.85,79,97,3.55,UA,1673930109
96,ulladulla,-35.35,150.4667,25.67,61,0,6.96,AU,1673930110
97,bredasdorp,-34.5322,20.0403,21.16,92,100,6.65,ZA,1673930112
98,victoria,22.2855,114.1577,16.81,75,95,4.47,HK,1673929836
99,the pas,53.8251,-101.2541,-20.92,100,92,0.24,CA,1673930114
100,rocha,-34.4833,-54.3333,16.71,94,0,2.66,UY,1673929904
101,torbay,47.6666,-52.7314,9.1,97,100,10.8,CA,1673930115
102,norman wells,65.282,-126.8329,-16.98,78,75,2.06,CA,1673930116
103,kawalu,-7.3817,108.2082,27.45,76,85,1.79,ID,1673930117
104,katsuura,35.1333,140.3,8.06,71,98,3.98,JP,1673929976
105,caravelas,-17.7125,-39.2481,23.11,91,3,1.99,BR,1673930119
106,hermanus,-34.4187,19.2345,22.11,84,96,6.33,ZA,1673930120
107,qaanaaq,77.484,-69.3632,-25.55,65,84,2.28,GL,1673930121
108,cabo san lucas,22.8909,-109.9124,20.84,72,93,1.34,MX,1673929908
109,noumea,-22.2763,166.4572,29.99,68,99,7.59,NC,1673929679
110,oriximina,-1.7656,-55.8661,23.35,91,95,1.14,BR,1673930123
111,saint-philippe,-21.3585,55.7679,27.77,78,47,6.12,RE,1673930124
112,hamilton,39.1834,-84.5333,9.99,93,100,4.63,US,1673930125
113,santiago del estero,-27.7951,-64.2615,26.91,30,68,4.81,AR,1673930126
114,lebu,-37.6167,-73.65,12.57,92,10,6.07,CL,1673930127
115,lagoa,39.05,-27.9833,15.01,74,99,6.51,PT,1673930128
116,yuanping,38.7153,112.7575,-4.11,38,6,4.55,CN,1673930129
117,draguignan,43.5333,6.4667,6.54,88,100,1.54,FR,1673930130
118,angoche,-16.2325,39.9086,26.21,84,100,2.17,MZ,1673930131
119,longonjo,-12.9067,15.2533,16.64,94,100,1.21,AO,1673930132
120,halifax,44.6453,-63.5724,8.04,98,100,3.09,CA,1673930123
121,muroto,33.2833,134.15,9.91,61,92,2.33,JP,1673930134
122,lorengau,-2.0226,147.2712,29.02,68,100,3.11,PG,1673930135
123,avera,33.194,-82.5271,11.03,53,100,3.08,US,1673930135
124,thompson,55.7435,-97.8558,-23.44,100,66,1.2,CA,1673930136
125,saint-joseph,-21.3667,55.6167,27.21,74,47,5.69,RE,1673929922
126,olovyannaya,50.95,115.5667,-18.06,79,24,3.49,RU,1673930138
127,mattru,7.6244,-11.8332,20.71,98,25,1.08,SL,1673930106
128,buta,2.7858,24.73,18.89,53,76,0.83,CD,1673930139
129,sri aman,1.2376,111.4621,31.03,70,20,1.54,MY,1673930140
130,dukat,62.55,155.55,-30.59,97,100,1.63,RU,1673929935
131,west wendover,40.7391,-114.0733,0.56,86,100,2.06,US,1673930142
132,paita,-5.0892,-81.1144,21.18,76,92,3.31,PE,1673930143
133,airai,-8.9266,125.4092,22.48,68,70,1.87,TL,1673930144
134,vizinga,61.0749,50.1031,-9.72,89,98,4.75,RU,1673930145
135,lasa,46.6166,10.7002,-2.51,82,39,0.39,IT,1673930146
136,fortuna,40.5982,-124.1573,7.51,95,100,2.06,US,1673930147
137,lhokseumawe,5.1801,97.1507,28.21,62,83,2.39,ID,1673930148
138,taizhou,32.4933,119.9106,4.77,28,2,3.47,CN,1673930094
139,jibuti,11.5,42.5,20.38,71,7,5.62,DJ,1673930149
140,mount gambier,-37.8333,140.7667,23.87,48,97,4.87,AU,1673930079
141,boyolangu,-8.1181,111.8935,28.69,76,61,3.22,ID,1673930151
142,batouri,4.4333,14.3667,18.62,38,100,0.62,CM,1673930151
143,tymovskoye,50.8456,142.655,-19.94,77,43,1.99,RU,1673930152
144,wyndham,37.6985,-77.6125,8.44,58,0,0.0,US,1673930153
145,nouadhibou,20.931,-17.0347,19.99,40,97,5.14,MR,1673930154
146,northam,51.0333,-4.2167,0.9,76,100,3.83,GB,1673930155
147,oruro,-17.9833,-67.15,8.54,53,99,5.16,BO,1673930156
148,salalah,17.0151,54.0924,22.05,78,75,1.54,OM,1673929718
149,los llanos de aridane,28.6585,-17.9182,15.86,79,100,4.12,ES,1673930157
150,oktyabrskoye,43.0645,44.7417,-6.92,93,27,1.0,RU,1673930158
151,praia da vitoria,38.7333,-27.0667,14.14,82,40,5.14,PT,1673930078
152,narsaq,60.9167,-46.05,-14.88,64,51,5.05,GL,1673930160
153,margate,51.3813,1.3862,-2.05,66,98,2.48,GB,1673930160
154,yulara,-25.2406,130.9889,37.9,17,26,2.57,AU,1673930161
155,naliya,23.2667,68.8333,19.53,18,14,5.74,IN,1673930162
156,grosse ile,42.1292,-83.1444,2.9,94,100,4.63,US,1673930163
157,vao,-22.6667,167.4833,24.21,69,97,6.88,NC,1673930164
158,srednekolymsk,67.45,153.6833,-44.63,99,68,2.04,RU,1673930165
159,labytnangi,66.6572,66.4183,-16.98,100,100,0.62,RU,1673929939
160,chernoyerkovskaya,45.4331,37.7686,2.39,71,11,4.29,RU,1673930167
161,faanui,-16.4833,-151.75,27.31,62,82,4.89,PF,1673930168
162,dingle,10.9995,122.6711,28.15,81,67,3.94,PH,1673930168
163,pochutla,15.7432,-96.4661,23.79,92,4,1.95,MX,1673930169
164,port hedland,-20.3167,118.5667,34.03,55,61,7.72,AU,1673930170
165,fort nelson,58.8053,-122.7002,-13.23,85,75,0.0,CA,1673930130
166,barrow,71.2906,-156.7887,-25.99,76,100,8.23,US,1673930173
167,ukiah,39.1502,-123.2078,6.68,90,64,0.89,US,1673930174
168,tessalit,20.1986,1.0114,15.76,22,4,3.43,ML,1673930175
169,bathsheba,13.2167,-59.5167,25.34,78,20,5.14,BB,1673930175
170,mogadishu,2.0371,45.3438,23.93,88,0,6.17,SO,1673930176
171,krasnoselkup,65.7,82.4667,-37.62,96,28,2.71,RU,1673930177
172,tasiilaq,65.6145,-37.6368,-6.91,76,100,4.74,GL,1673930178
173,keti bandar,24.1447,67.4497,17.88,17,41,5.9,PK,1673930179
174,puro,12.4841,123.3827,27.39,81,98,4.66,PH,1673930180
175,beloha,-25.1667,45.05,27.11,60,0,3.84,MG,1673930181
176,bambous virieux,-20.3428,57.7575,27.9,69,75,7.72,MU,1673930182
177,porto novo,6.4965,2.6036,25.9,87,7,1.57,BJ,1673930183
178,daoukro,7.0591,-3.9631,18.71,74,5,0.5,CI,1673930184
179,sioux lookout,50.1001,-91.917,0.04,93,100,1.54,CA,1673930185
180,salinopolis,-0.6136,-47.3561,25.48,83,95,4.18,BR,1673930186
181,talakan,50.3167,130.3667,-19.92,85,100,0.64,RU,1673930187
182,vostok,46.4856,135.8833,-17.38,76,96,2.36,RU,1673930188
183,troitskoye,52.9821,84.6757,-10.38,92,100,6.31,RU,1673930024
184,machala,-3.2667,-79.9667,24.66,77,100,1.15,EC,1673930189
185,alofi,-19.0595,-169.9187,26.94,89,94,2.57,NU,1673930190
186,oloron-sainte-marie,43.1944,-0.6107,8.96,85,77,8.26,FR,1673930191
187,vestmannaeyjar,63.4427,-20.2734,-2.16,73,33,10.44,IS,1673930192
188,carutapera,-1.195,-46.02,23.17,93,79,2.24,BR,1673930160
189,evensk,61.95,159.2333,-18.14,77,100,3.45,RU,1673929940
190,el tigre,8.8875,-64.2454,22.96,78,77,5.75,VE,1673930195
191,santa cruz de tenerife,28.4682,-16.2546,17.01,91,100,2.06,ES,1673930196
192,saldanha,-33.0117,17.9442,15.03,92,12,4.78,ZA,1673930196
193,mackay,-21.15,149.2,24.27,96,100,7.05,AU,1673930124
194,sur,22.5667,59.5289,21.58,60,66,1.77,OM,1673929745
195,hibbing,47.4272,-92.9377,-0.22,100,100,3.09,US,1673930198
196,haines junction,60.7522,-137.5108,-10.94,98,99,0.81,CA,1673930199
197,listowel,52.4464,-9.485,-2.16,87,100,4.56,IE,1673930200
198,kruisfontein,-34.0033,24.7314,21.05,93,100,3.46,ZA,1673930201
199,inhambane,-23.865,35.3833,24.99,88,20,2.06,MZ,1673930202
200,parry sound,45.3501,-80.033,-0.97,40,100,4.0,CA,1673930203
201,yinchuan,38.4681,106.2731,-6.05,39,0,1.6,CN,1673930204
202,madison,34.7334,-86.5667,15.64,78,100,7.2,US,1673930062
203,portland,45.5234,-122.6762,8.23,87,100,2.06,US,1673929625
204,manihari,25.35,87.6333,18.48,38,0,2.78,IN,1673930206
205,hofn,64.2539,-15.2082,0.13,60,100,8.84,IS,1673930208
206,barranca de upia,4.5696,-72.9668,25.67,61,100,0.38,CO,1673930209
207,havoysund,70.9963,24.6622,1.13,97,100,3.71,NO,1673930210
208,benidorm,38.5382,-0.131,16.61,66,80,12.29,ES,1673930211
209,grand forks,47.9417,-97.4337,-7.15,86,100,9.77,US,1673930211
210,verkhnevilyuysk,63.4453,120.3167,-41.82,99,90,0.8,RU,1673930140
211,yenagoa,4.9247,6.2642,23.25,95,47,1.45,NG,1673929943
212,chifeng,42.2683,118.9636,-6.81,37,53,5.11,CN,1673930213
213,chuy,-33.6971,-53.4616,18.33,88,0,2.47,UY,1673930214
214,port hardy,50.6996,-127.4199,6.1,100,100,2.06,CA,1673930215
215,clyde river,70.4692,-68.5914,-25.87,76,100,2.06,CA,1673930217
216,marsa matruh,31.3525,27.2453,9.11,93,40,1.54,EG,1673930219
217,krasnofarfornyy,59.1364,31.8502,-1.41,95,100,3.16,RU,1673930219
218,gizo,-8.103,156.8419,28.6,73,94,3.65,SB,1673930220
219,ust-omchug,61.15,149.6333,-37.03,97,79,2.34,RU,1673930221
220,iqaluit,63.7506,-68.5145,-31.84,74,20,0.0,CA,1673930222
221,berdigestyakh,62.0989,126.6992,-43.72,99,93,0.46,RU,1673930223
222,homa bay,-0.5273,34.4571,20.15,57,12,1.53,KE,1673930224
223,arklow,52.7931,-6.1414,0.6,66,99,2.77,IE,1673930225
224,hithadhoo,-0.6,73.0833,26.52,66,33,1.92,MV,1673930195
225,namatanai,-3.6667,152.4333,28.47,72,100,2.97,PG,1673930226
226,ewa beach,21.3156,-158.0072,26.97,65,0,4.12,US,1673930227
227,coquimbo,-29.9533,-71.3436,15.85,88,0,2.06,CL,1673930228
228,dunedin,-45.8742,170.5036,16.56,75,56,0.89,NZ,1673930229
229,namibe,-15.1961,12.1522,23.28,76,91,0.55,AO,1673930230
230,sibolga,1.7427,98.7792,28.45,69,99,2.7,ID,1673930231
231,mahebourg,-20.4081,57.7,27.92,69,75,7.72,MU,1673930232
232,beringovskiy,63.05,179.3167,-21.57,91,100,9.6,RU,1673930233
233,codrington,-38.2667,141.9667,25.13,41,96,7.63,AU,1673930234
234,bara,10.3744,10.7288,17.45,27,100,3.11,NG,1673929703
235,bubaque,11.2833,-15.8333,24.87,69,46,4.63,GW,1673930235
236,cayenne,4.9333,-52.3333,23.02,94,100,2.06,GF,1673930137
237,mwene-ditu,-7.0,23.45,18.02,97,100,1.34,CD,1673930237
238,natal,-5.795,-35.2094,25.12,83,40,2.06,BR,1673930238
239,zyryanka,65.75,150.85,-33.98,97,100,2.14,RU,1673930239
240,constitucion,-35.3333,-72.4167,11.74,89,9,2.52,CL,1673930240
241,promyshlennyy,67.5833,63.9167,-10.62,94,100,6.11,RU,1673930241
242,vanimo,-2.6741,141.3028,28.45,72,97,2.48,PG,1673930008
243,turiacu,-1.6633,-45.3717,22.12,96,90,1.14,BR,1673930242
244,castlemaine,-37.0667,144.2167,37.38,20,21,6.26,AU,1673930243
245,vila velha,-20.3297,-40.2925,23.97,95,75,1.03,BR,1673930244
246,trincomalee,8.5711,81.2335,26.15,70,59,5.11,LK,1673930246
247,katobu,-4.9408,122.5276,31.32,61,59,0.86,ID,1673930247
248,pedernales,18.0384,-71.744,22.93,74,78,1.38,DO,1673930248
249,saint-georges,12.0564,-61.7485,24.82,83,20,0.0,GD,1673930249
250,lavrentiya,65.5833,-171.0,-28.7,91,93,5.86,RU,1673930250
251,hirara,24.8,125.2833,19.92,63,75,5.14,JP,1673929960
252,petatlan,17.5167,-101.2667,21.86,90,17,1.07,MX,1673930225
253,pisco,-13.7,-76.2167,21.12,78,0,0.0,PE,1673930254
254,dharampuri,22.1667,75.35,20.28,31,1,2.72,IN,1673930256
255,macon,39.8667,-88.9668,12.03,94,0,6.69,US,1673930145
256,hun,29.1268,15.9477,10.43,44,0,2.8,LY,1673930257
257,anadyr,64.75,177.4833,-21.72,64,0,7.0,RU,1673930258
258,saint-pierre,-21.3393,55.4781,28.28,69,75,9.77,RE,1673930259
259,broome,42.2506,-75.833,-2.99,82,0,2.06,US,1673930261
260,ust-kuyga,70.0167,135.6,-38.91,100,99,2.15,RU,1673930262
261,tual,-5.6667,132.75,28.66,72,97,4.04,ID,1673930263
262,sena madureira,-9.0656,-68.6569,21.04,99,100,0.52,BR,1673930264
263,afsin,38.2477,36.914,2.63,93,100,0.9,TR,1673930266
264,padang,-0.9492,100.3543,27.03,70,99,2.58,ID,1673929995
265,adre,13.4667,22.2,14.71,27,29,5.11,TD,1673930269
266,westport,41.1415,-73.3579,2.53,62,0,4.63,US,1673930270
267,husavik,66.0449,-17.3389,-2.31,92,100,9.17,IS,1673929997
268,neryungri,56.6709,124.6491,-34.61,87,100,2.49,RU,1673930272
269,maku,39.2911,44.4521,-1.3,72,69,0.59,IR,1673930273
270,yar-sale,66.8333,70.8333,-13.96,95,100,7.07,RU,1673929998
271,ocos,14.5094,-92.1933,20.1,72,5,3.02,GT,1673930276
272,dudinka,69.4058,86.1778,-43.22,96,7,1.39,RU,1673930277
273,ixtapa,20.7,-105.2,19.57,82,0,1.03,MX,1673930262
274,khatanga,71.9667,102.5,-40.15,100,25,2.69,RU,1673930280
275,atbasar,51.8,68.3333,-19.05,82,34,1.31,KZ,1673930281
276,tucupita,9.0622,-62.051,20.14,98,1,1.38,VE,1673930283
277,egvekinot,66.3167,-179.1667,-29.24,84,42,8.45,RU,1673930118
278,bedesa,8.9,40.7833,16.57,28,8,1.35,ET,1673930285
279,pandan,14.0453,124.1694,24.77,94,100,6.88,PH,1673930286
280,dormidontovka,47.7702,134.9076,-16.79,80,70,2.14,RU,1673930287
281,necochea,-38.5473,-58.7368,16.71,95,5,4.7,AR,1673930289
282,rabo de peixe,37.8,-25.5833,13.73,72,75,4.12,PT,1673930290
283,luwuk,-0.9516,122.7875,30.12,70,82,1.49,ID,1673930292
284,albury,-36.0833,146.9167,35.18,25,6,2.8,AU,1673930127
285,havelock,34.8791,-76.9013,7.19,61,98,2.56,US,1673930294
286,miandrivazo,-19.5167,45.4667,27.47,67,21,1.51,MG,1673930294
287,okato,-39.2,173.8833,20.94,70,23,4.88,NZ,1673930295
288,baoning,25.3378,110.026,7.92,42,75,3.0,CN,1673930296
289,guerrero negro,27.9769,-114.0611,17.61,81,100,5.06,MX,1673930298
290,orangeville,43.9168,-80.0997,0.02,81,100,2.95,CA,1673929650
291,okha,53.5739,142.9478,-30.76,88,8,3.92,RU,1673930299
292,hami,42.8,93.45,-7.81,38,0,1.08,CN,1673930300
293,sitka,57.0531,-135.33,4.94,81,100,5.66,US,1673930301
294,mendoza,-32.8908,-68.8272,25.74,41,40,6.17,AR,1673930285
295,pringsewu,-5.3582,104.9744,27.32,77,100,0.82,ID,1673930303
296,kargil,34.5667,76.1,-25.36,82,46,0.6,IN,1673930304
297,labuhan,-6.8844,112.2051,29.72,68,100,3.29,ID,1673930304
298,kandrian,-6.2167,149.55,31.46,60,91,3.87,PG,1673930306
299,janesville,42.6828,-89.0187,7.78,90,94,2.24,US,1673930307
300,sohag,26.557,31.6948,7.16,68,0,1.57,EG,1673930308
301,kuteynykove,47.8123,38.2882,-4.75,96,53,4.31,UA,1673930309
302,kapuskasing,49.4169,-82.4331,1.0,51,100,4.63,CA,1673930310
303,cabanas,22.9758,-82.9219,15.8,56,0,2.14,CU,1673930311
304,tabou,4.423,-7.3528,24.62,86,3,1.68,CI,1673930312
305,anchorage,61.2181,-149.9003,-1.31,89,75,4.12,US,1673930061
306,pueblo nuevo,23.3833,-105.3833,6.97,39,90,2.18,MX,1673929947
307,preobrazheniye,42.9019,133.9064,-6.23,36,2,2.39,RU,1673930314
308,amahai,-3.3333,128.9167,29.25,73,96,2.64,ID,1673930316
309,kualakapuas,-3.0091,114.3876,32.07,56,92,1.51,ID,1673930316
310,tura,25.5198,90.2201,20.63,28,0,1.14,IN,1673930195
311,kalakamati,-20.5929,27.3121,19.87,75,34,5.73,BW,1673930318
312,ponta delgada,37.7333,-25.6667,14.4,72,75,4.12,PT,1673930319
313,wenling,28.3669,121.36,8.03,49,11,4.04,CN,1673930320
314,visby,57.6409,18.296,2.25,93,100,8.75,SE,1673930320
315,pitimbu,-7.4706,-34.8086,25.33,80,98,2.43,BR,1673930321
316,seoul,37.5683,126.9778,-1.22,45,75,1.03,KR,1673930322
317,kasane,-17.8167,25.15,20.05,100,0,3.6,BW,1673930323
318,pascagoula,30.3658,-88.5561,18.35,92,40,1.54,US,1673930273
319,te anau,-45.4167,167.7167,22.85,44,24,2.96,NZ,1673930324
320,peniche,39.3558,-9.3811,15.06,92,88,13.56,PT,1673930325
321,berlevag,70.8578,29.0864,0.97,80,100,1.54,NO,1673930327
322,flinders,-34.5833,150.8552,28.43,63,5,4.02,AU,1673930328
323,berbera,10.4396,45.0143,23.55,73,33,1.18,SO,1673930329
324,harper,4.375,-7.7169,25.07,82,3,0.98,LR,1673930329
325,barra do corda,-5.5,-45.25,21.3,98,100,1.9,BR,1673930330
326,tutoia,-2.7619,-42.2744,22.9,89,99,3.45,BR,1673930331
327,quelimane,-17.8786,36.8883,25.97,94,75,1.03,MZ,1673930332
328,pevek,69.7008,170.3133,-35.93,99,12,1.51,RU,1673930333
329,kenora,49.8167,-94.4337,-1.46,93,100,4.12,CA,1673930093
330,rio gallegos,-51.6226,-69.2181,9.03,57,0,1.03,AR,1673930334
331,bengkulu,-3.8004,102.2655,28.51,67,73,3.11,ID,1673930335
332,dourbali,11.8091,15.8632,17.12,24,87,3.84,TD,1673930336
333,itarema,-2.9248,-39.9167,23.31,91,100,1.63,BR,1673930337
334,cherskiy,68.75,161.3,-37.41,96,100,1.82,RU,1673930338
335,honiara,-9.4333,159.95,29.42,70,94,2.71,SB,1673930218
336,rawson,-43.3002,-65.1023,17.04,70,100,3.74,AR,1673930339
337,tautira,-17.7333,-149.15,26.49,71,84,2.17,PF,1673930340
338,port moresby,-9.4431,147.1797,32.68,52,20,5.14,PG,1673930341
339,sao joao da barra,-21.6403,-41.0511,23.63,91,3,6.05,BR,1673930342
340,souillac,-20.5167,57.5167,27.21,69,75,7.72,MU,1673930343
341,ilhabela,-23.7781,-45.3581,23.92,92,32,0.22,BR,1673930344
342,grevesmuhlen,53.8667,11.1833,3.49,94,100,6.43,DE,1673930345
343,muros,42.7762,-9.0603,11.16,75,48,13.22,ES,1673930346
344,boralday,43.3578,76.8594,-14.08,66,20,1.0,KZ,1673930347
345,mandalgovi,45.7625,106.2708,-13.36,49,0,6.94,MN,1673930347
346,mount isa,-20.7333,139.5,31.87,48,100,4.12,AU,1673930348
347,presidencia roque saenz pena,-26.7852,-60.4388,22.83,54,1,2.87,AR,1673930349
348,dabwali,29.95,74.7333,13.63,26,0,1.72,IN,1673930350
349,adrar,20.5022,-10.0711,16.05,21,96,5.11,MR,1673930155
350,lufkin,31.3382,-94.7291,17.07,96,0,1.54,US,1673930121
351,kudahuvadhoo,2.6708,72.8944,26.22,74,37,2.26,MV,1673930353
352,saint anthony,45.0205,-93.218,1.25,95,100,3.6,US,1673930119
353,thaton,16.9206,97.3714,27.81,43,30,1.35,MM,1673930354
354,hasaki,35.7333,140.8333,6.79,56,96,4.24,JP,1673930355
355,cidreira,-30.1811,-50.2056,23.46,81,73,4.89,BR,1673930356
356,grootfontein,-19.5667,18.1167,17.76,94,99,0.51,NA,1673930358
357,thinadhoo,0.5333,72.9333,26.33,68,85,1.54,MV,1673930055
358,mehamn,71.0357,27.8492,0.95,93,75,2.57,NO,1673930359
359,belyy yar,53.6039,91.3903,-8.06,72,40,6.0,RU,1673930360
360,teya,60.3778,92.6267,-23.42,95,100,2.2,RU,1673930361
361,argelia,2.2556,-77.2488,17.38,98,84,0.24,CO,1673930362
362,matara,5.9485,80.5353,26.99,73,96,4.67,LK,1673930363
363,barcelos,41.5388,-8.6151,14.08,78,47,8.31,PT,1673930364
364,nyuksenitsa,60.4128,44.2397,-7.27,92,100,4.49,RU,1673930118
365,waingapu,-9.6567,120.2641,29.86,70,60,4.14,ID,1673930368
366,yingkou,40.6648,122.2283,-2.46,32,6,4.39,CN,1673930369
367,acapulco,16.8634,-99.8901,23.9,83,0,2.06,MX,1673930369
368,belomorsk,64.5232,34.7668,0.46,79,98,6.31,RU,1673930370
369,iberia,29.9502,-91.7507,19.98,88,100,8.75,US,1673930371
370,alexandria,31.2156,29.9553,9.3,80,13,2.11,EG,1673930284
371,umm bab,25.2142,50.8072,19.22,77,54,5.8,QA,1673930373
372,neuquen,-38.9516,-68.0591,23.94,50,0,5.14,AR,1673930374
373,pouembout,-21.1333,164.9,26.7,69,100,3.86,NC,1673930374
374,luderitz,-26.6481,15.1594,18.17,89,100,2.19,NA,1673930375
375,palmer,42.1584,-72.3287,0.79,74,0,2.57,US,1673930376
376,klaksvik,62.2266,-6.589,-1.49,68,100,11.06,FO,1673930377
377,touros,-5.1989,-35.4608,25.16,82,65,3.63,BR,1673930250
378,nha trang,12.25,109.1833,26.0,71,97,6.03,VN,1673930378
379,bonthe,7.5264,-12.505,23.1,92,11,1.5,SL,1673930379
380,konin,52.2234,18.2512,3.83,78,100,6.04,PL,1673930380
381,tuatapere,-46.1333,167.6833,16.55,71,57,2.94,NZ,1673930381
382,farmington,36.7281,-108.2187,1.78,93,20,1.54,US,1673930382
383,chute-aux-outardes,49.1168,-68.399,-4.01,93,100,3.6,CA,1673930383
384,labuan,5.2767,115.2417,30.2,70,20,1.54,MY,1673930383
385,pangody,65.85,74.4859,-20.37,98,100,6.88,RU,1673930384
386,hambantota,6.1241,81.1185,27.19,94,40,2.57,LK,1673930385
387,geraldton,-28.7667,114.6,28.23,39,0,9.77,AU,1673930386
388,scarborough,54.2797,-0.4044,-1.86,85,4,1.79,GB,1673930387
389,buala,-8.145,159.5921,28.84,73,99,2.4,SB,1673930388
390,montana,43.4125,23.225,4.04,91,100,0.62,BG,1673930389
391,bogatoye,53.0601,51.3325,-16.05,86,30,3.33,RU,1673930389
392,otane,-39.8833,176.6333,21.12,63,34,4.14,NZ,1673930390
393,svetlyy,54.675,20.1347,2.03,97,100,5.93,RU,1673930391
394,summerville,33.0185,-80.1757,11.0,66,75,2.57,US,1673930214
395,terney,45.0503,136.6092,-9.88,48,10,2.93,RU,1673930393
396,kahului,20.8947,-156.47,25.47,79,40,3.09,US,1673930166
397,sambava,-14.2667,50.1667,25.01,80,96,3.23,MG,1673930394
398,talnakh,69.4865,88.3972,-36.68,83,3,1.46,RU,1673930395
399,guadalupe y calvo,26.1,-106.9667,0.56,73,14,2.11,MX,1673930396
400,jijiga,9.35,42.8,16.06,21,22,2.33,ET,1673930397
401,sungurlu,40.1675,34.3739,2.76,81,43,1.89,TR,1673930397
402,ponta do sol,32.6667,-17.1,15.95,70,34,2.08,PT,1673930398
403,saumur,47.3333,-0.25,4.06,97,100,1.44,FR,1673930399
404,taft,31.7471,54.2088,-0.03,60,100,1.03,IR,1673930400
405,valparaiso,-33.0393,-71.6273,16.38,100,0,1.03,CL,1673929928
406,jalu,29.0331,21.5482,11.31,66,0,3.79,LY,1673930401
407,half moon bay,37.4636,-122.4286,11.45,82,100,9.77,US,1673930346
408,moranbah,-22.0016,148.0466,20.31,95,100,11.09,AU,1673930403
409,maubin,16.7333,95.65,28.06,36,14,2.55,MM,1673930404
410,samarai,-10.6167,150.6667,28.61,72,100,3.05,PG,1673930405
411,nuuk,64.1835,-51.7216,-10.15,75,100,4.73,GL,1673930406
412,tarakan,3.3,117.6333,29.72,79,40,2.06,ID,1673930407
413,sisak,45.4661,16.3783,0.99,80,59,3.74,HR,1673930408
414,ardmore,34.1743,-97.1436,15.01,59,0,0.0,US,1673930380
415,maldonado,-34.6667,-54.9167,20.66,89,0,3.23,UY,1673930410
416,provideniya,64.3833,-173.3,-15.94,51,75,14.0,RU,1673930411
417,whitehorse,60.7161,-135.0538,-6.22,92,100,5.66,CA,1673930342
418,vila franca do campo,37.7167,-25.4333,14.23,81,99,2.96,PT,1673930413
419,aksu,41.1231,80.2644,-13.09,79,6,1.18,CN,1673930414
420,kavaratti,10.5669,72.642,26.4,74,26,5.13,IN,1673930414
421,ust-nera,64.5667,143.2,-30.1,98,100,2.72,RU,1673930415
422,erzincan,39.75,39.5,-2.39,93,75,1.03,TR,1673930416
423,port lincoln,-34.7333,135.8667,23.2,77,100,8.26,AU,1673930417
424,acarau,-2.8856,-40.12,23.17,90,100,2.13,BR,1673930418
425,neiafu,-18.65,-173.9833,30.38,84,20,3.6,TO,1673930419
426,ahipara,-35.1667,173.1667,20.04,70,39,3.07,NZ,1673930420
427,agadez,19.75,10.25,11.36,31,0,4.14,NE,1673930420
428,zadar,44.1197,15.2422,10.34,71,40,2.57,HR,1673930421
429,toora-khem,52.4675,96.11,-13.05,88,100,1.64,RU,1673930423
430,yanacancha,-10.2411,-76.6456,3.97,96,96,0.54,PE,1673930423
431,torrevieja,37.9787,-0.6822,16.91,51,86,1.34,ES,1673930164
432,pervomayskiy,53.2485,40.2871,-6.56,96,100,4.56,RU,1673930426
433,batsfjord,70.6345,29.7185,0.96,93,100,8.75,NO,1673930426
434,antalaha,-14.9003,50.2788,26.61,72,74,2.41,MG,1673930427
435,little current,45.9793,-81.9248,2.45,88,100,0.89,CA,1673930428
436,tarabuco,-19.1667,-64.9167,8.74,77,89,1.37,BO,1673930429
437,booue,-0.0921,11.9385,22.67,94,96,0.55,GA,1673930430
438,aykhal,66.0,111.5,-41.21,99,100,2.7,RU,1673930431
439,grasten,54.9192,9.5952,3.02,97,100,3.09,DK,1673930432
440,kortkeros,61.8106,51.5806,-6.0,91,100,5.11,RU,1673930433
441,sola,-13.8833,167.55,27.88,73,64,6.69,VU,1673930434
442,konolfingen,46.8791,7.6201,-0.17,88,75,2.06,CH,1673930435
443,iquique,-20.2208,-70.1431,21.02,78,48,0.73,CL,1673930437
444,coihaique,-45.5752,-72.0662,11.34,76,0,2.57,CL,1673929949
445,paamiut,61.994,-49.6678,-14.03,69,100,6.31,GL,1673930439
446,nuristan,35.3,70.8333,-11.38,51,0,3.46,AF,1673930440
447,pangkalanbuun,-2.6833,111.6167,34.22,47,97,0.5,ID,1673930441
448,chaozhou,23.6651,116.6379,14.92,51,10,1.71,CN,1673930442
449,maltahohe,-24.8333,16.9833,23.54,45,92,0.52,NA,1673930444
450,mamlyutka,54.9375,68.5394,-15.99,85,73,3.75,KZ,1673930446
451,kaeo,-35.1,173.7833,23.51,62,13,5.77,NZ,1673930447
452,port macquarie,-31.4333,152.9167,24.94,64,40,4.84,AU,1673930194
453,soe,-9.8607,124.284,25.31,74,73,1.53,ID,1673930449
454,kyra,49.5776,111.9753,-16.46,75,42,2.02,RU,1673930450
455,gravdal,68.1214,13.5031,-2.06,100,20,1.03,NO,1673930452
456,bulgan,48.8125,103.5347,-13.97,68,97,2.17,MN,1673930453
457,kota kinabalu,5.9749,116.0724,29.99,70,20,1.54,MY,1673930454
458,inongo,-1.95,18.2667,21.99,90,100,3.47,CD,1673930455
459,kihei,20.785,-156.4656,25.47,84,40,3.09,US,1673930171
460,hostotipaquillo,21.0667,-104.0667,11.84,43,98,0.82,MX,1673930458
461,quang ngai,15.1167,108.8,20.44,91,100,3.52,VN,1673930459
462,viedma,-40.8135,-62.9967,19.76,43,99,0.65,AR,1673930460
463,bonavista,48.6499,-53.1147,3.28,99,100,8.64,CA,1673930461
464,bandar-e lengeh,26.5579,54.8807,18.06,82,34,2.06,IR,1673930463
465,vilyuysk,63.7553,121.6247,-44.15,98,82,1.2,RU,1673930464
466,luangwa,-15.6167,30.4167,22.12,98,100,1.39,ZM,1673930466
467,corn island,12.1694,-83.0418,25.46,74,26,6.18,NI,1673930467
468,along,28.1667,94.7667,18.29,58,78,0.31,IN,1673930467
469,kampong thum,12.7111,104.8887,29.63,50,12,3.43,KH,1673930469
470,bowen,-20.0167,148.2333,26.55,87,100,3.57,AU,1673930470
471,tadine,-21.55,167.8833,25.78,66,96,6.47,NC,1673930471
472,aberystwyth,52.4155,-4.0829,1.14,72,100,1.73,GB,1673930472
473,port keats,-14.25,129.55,30.27,68,48,4.55,AU,1673930473
474,fare,-16.7,-151.0167,27.13,63,76,3.49,PF,1673930474
475,edd,13.9297,41.6925,26.8,42,13,5.99,ER,1673930475
476,waldoboro,44.0954,-69.3756,-0.25,93,100,1.34,US,1673930417
477,puerto baquerizo moreno,-0.9,-89.6,23.33,88,10,3.07,EC,1673930477
478,cap malheureux,-19.9842,57.6142,28.04,64,26,5.81,MU,1673930478
479,clinton,42.587,-82.9199,2.75,91,100,5.14,US,1673930479
480,muli,2.9167,73.5667,26.82,73,13,2.21,MV,1673930480
481,nemuro,43.3236,145.575,-5.3,53,28,2.84,JP,1673930481
482,hovd,48.0056,91.6419,-13.4,49,100,0.44,MN,1673930481
483,magadan,59.5667,150.8,-19.8,88,100,5.98,RU,1673930484
484,choix,26.7092,-108.3219,14.31,60,77,1.62,MX,1673930485
485,deputatskiy,69.3,139.9,-36.43,100,100,0.09,RU,1673930486
486,porto santo,33.072,-16.3415,16.21,67,75,5.66,PT,1673930486
487,yueyang,29.3333,113.0919,6.35,34,52,3.03,CN,1673930488
488,tchibanga,-2.85,11.0333,21.88,96,97,0.37,GA,1673930489
489,obo,5.3998,26.4869,19.97,36,52,1.99,CF,1673930490
490,yerbogachen,61.2767,108.0108,-40.55,96,67,1.78,RU,1673930490
491,tiznit,29.5833,-9.5,10.08,67,0,0.58,MA,1673930492
492,kabalo,-6.05,26.9167,20.18,98,100,2.11,CD,1673930492
493,amroha,28.9167,78.4667,12.97,43,0,2.02,IN,1673930493
494,hammerfest,70.6634,23.6821,0.25,100,100,6.69,NO,1673930494
495,boa vista,2.8197,-60.6733,24.99,78,40,4.63,BR,1673930495
496,baykit,61.67,96.37,-31.07,92,100,2.84,RU,1673930496
497,yumen,40.2833,97.2,-9.73,62,1,11.04,CN,1673930497
498,rosetta,31.4044,30.4164,13.07,81,24,1.55,EG,1673930498
499,cockburn town,21.4612,-71.1419,23.22,56,4,4.77,TC,1673930499
500,usinsk,65.9939,57.5281,-8.96,92,100,10.81,RU,1673930500
501,kathu,7.9178,98.3332,30.9,59,62,2.33,TH,1673930501
502,san joaquin,37.9333,-121.3011,10.2,80,40,2.57,US,1673930502
503,pudozh,61.8099,36.5345,-1.39,92,98,5.04,RU,1673930503
504,kununurra,-15.7667,128.7333,31.99,62,75,3.6,AU,1673930504
505,lososina,48.9975,140.3106,-15.47,56,22,2.07,RU,1673930505
506,mwinilunga,-11.7358,24.4293,16.77,99,100,1.57,ZM,1673930506
507,mayumba,-3.432,10.6554,25.3,85,99,1.61,GA,1673930506
508,atar,20.5169,-13.0499,19.13,18,100,3.07,MR,1673930508
509,plettenberg bay,-34.0527,23.3716,21.52,91,80,2.7,ZA,1673930509
510,blagoyevo,63.3667,47.9167,-6.62,91,100,5.38,RU,1673930510
511,kargasok,59.0556,80.8572,-11.26,94,100,3.64,RU,1673930510
512,esperance,-33.8667,121.9,17.27,56,93,7.15,AU,1673930511
513,springbok,-29.6643,17.8865,23.32,53,20,3.09,ZA,1673930512
514,sisimiut,66.9395,-53.6735,-19.26,95,100,5.51,GL,1673930513
515,laguna,38.421,-121.4238,9.43,87,0,4.12,US,1673930514
516,garissa,-0.4536,39.6401,24.57,71,49,3.33,KE,1673930515
517,yidu,24.1614,115.1328,10.36,59,88,2.51,CN,1673930516
518,tsabong,-26.0217,22.401,24.8,41,2,4.11,BW,1673930516
519,oksfjord,70.2396,22.3479,1.1,93,96,3.28,NO,1673930517
520,zeya,53.75,127.2667,-27.57,83,58,1.07,RU,1673930518
521,vasterhaninge,59.1167,18.1,3.24,89,100,7.71,SE,1673930519
522,ambon,-3.6954,128.1814,32.08,70,40,3.09,ID,1673930520
523,eislingen,48.6951,9.7068,2.69,89,71,1.82,DE,1673930521
524,itororo,-15.1169,-40.0703,18.76,96,39,0.68,BR,1673930522
525,shelburne,44.0787,-80.2041,0.44,75,98,4.28,CA,1673930523
526,tarko-sale,64.9225,77.785,-24.63,91,100,5.1,RU,1673930524
527,taiping,4.85,100.7333,30.12,40,85,0.56,MY,1673930524
528,ballina,-28.8667,153.5667,27.79,68,1,4.47,AU,1673930508
529,kralendijk,12.15,-68.2667,25.99,78,7,5.14,BQ,1673930526
530,raymondville,26.4815,-97.7831,21.16,89,0,3.41,US,1673930527
531,kasongo-lunda,-6.4667,16.8167,19.63,97,100,0.69,CD,1673930528
532,shahreza,32.0339,51.8794,2.03,80,97,1.1,IR,1673930529
533,balkanabat,39.5108,54.3671,2.02,37,98,2.56,TM,1673930402
534,byron bay,-28.65,153.6167,27.75,60,4,4.52,AU,1673930322
535,lianran,24.9227,102.485,11.3,35,7,5.46,CN,1673930531
536,kalmunai,7.4167,81.8167,26.76,72,78,5.2,LK,1673930532
537,charlestown,-32.95,151.6667,27.28,67,52,0.45,AU,1673930533
538,killybegs,54.6333,-8.45,2.44,63,96,2.46,IE,1673930534
539,boyuibe,-20.4167,-63.2833,19.94,56,71,1.37,BO,1673930535
540,imeni poliny osipenko,52.4201,136.4853,-28.45,88,100,0.4,RU,1673930536
541,high level,58.5169,-117.136,-8.94,100,100,3.6,CA,1673930412
542,lethem,3.3803,-59.7968,24.08,80,92,5.31,GY,1673930537
543,kingisepp,59.3733,28.6134,0.71,88,100,3.71,RU,1673930538
544,mufumbwe,-13.6833,24.8,17.76,99,100,0.67,ZM,1673930539
545,marawi,7.9986,124.2928,25.11,84,100,0.8,PH,1673930540
546,eureka,40.8021,-124.1637,7.66,93,31,0.45,US,1673930541
547,bulaevo,54.9056,70.4439,-13.67,89,91,3.7,KZ,1673930542
548,sandwick,60.0,-1.25,2.9,81,75,11.32,GB,1673930543
549,wattegama,6.7989,81.4808,26.66,71,99,3.66,LK,1673930544
550,ordzhonikidze,52.4411,61.7408,-19.23,73,9,2.66,KZ,1673930477
551,hokitika,-42.7167,170.9667,20.46,72,16,4.41,NZ,1673930546
552,cururupu,-1.8283,-44.8683,22.34,96,98,0.92,BR,1673930518
553,tukrah,32.5341,20.5791,13.08,78,2,7.24,LY,1673930549
554,paris,48.8534,2.3488,1.43,95,100,2.06,FR,1673929980
555,the valley,18.217,-63.0578,25.05,78,10,8.92,AI,1673930551
556,kungurtug,50.5994,97.5228,-15.79,93,100,0.33,RU,1673930552
557,kieta,-6.2167,155.6333,28.37,77,75,2.34,PG,1673930553
558,saquena,-4.6667,-73.5167,22.04,98,100,0.67,PE,1673930554
559,grand-lahou,5.1367,-5.0242,24.81,86,4,0.5,CI,1673930554
560,alyangula,-13.8483,136.4192,28.61,73,100,3.43,AU,1673930555
